City_ID,City,Lat,Lng,Max Temp,Humidity,Cloudiness,Wind Speed,Country,Date
0,vorgashor,67.5833,63.95,5.81,90,97,3.21,RU,1692826822
1,bilibino,68.0546,166.4372,7.52,53,36,0.64,RU,1692826822
2,revda,56.801,59.9303,3.88,85,6,2.01,RU,1692826833
3,waitangi,-43.9535,-176.5597,9.9,91,100,3.13,NZ,1692826834
4,port-aux-francais,-49.35,70.2167,4.23,97,99,13.34,TF,1692826835
5,grytviken,-54.2811,-36.5092,0.01,98,98,1.09,GS,1692826836
6,camocim,-2.9022,-40.8411,26.76,69,13,7.59,BR,1692826837
7,ballina,-28.8667,153.5667,14.88,81,48,4.39,AU,1692826838
8,haiku-pauwela,20.9219,-156.3051,29.54,57,40,10.29,US,1692826839
9,iqaluit,63.7506,-68.5145,6.85,81,100,8.23,CA,1692826840
10,ribeira grande,38.5167,-28.7,22.22,60,20,6.26,PT,1692826840
11,nar'yan-mar,67.6713,53.087,7.1,89,97,8.23,RU,1692826841
12,edinburgh of the seven seas,-37.0676,-12.3116,12.76,84,39,8.86,SH,1692826842
13,isafjordur,66.0755,-23.124,11.07,78,48,0.06,IS,1692826843
14,puerto natales,-51.7236,-72.4875,2.43,77,75,5.49,CL,1692826779
15,alice springs,-23.7,133.8833,12.9,53,0,25.48,AU,1692826557
16,stanley,54.868,-1.6985,15.5,83,0,3.09,GB,1692826845
17,klyuchi,52.2667,79.1667,22.11,42,53,4.32,RU,1692826844
18,amahai,-3.3333,128.9167,24.68,88,100,2.91,ID,1692826846
19,mandera,3.9366,41.867,26.32,53,37,8.83,KE,1692826847
20,choibalsan,48.0667,114.5,10.35,75,9,2.02,MN,1692826848
21,gadzhiyevo,69.2551,33.3362,6.87,87,14,1.23,RU,1692826849
22,port-vila,-17.7338,168.3219,21.78,88,75,1.03,VU,1692826850
23,hamilton,39.1834,-84.5333,35.92,57,0,4.63,US,1692826623
24,soledade,-28.8183,-52.5103,18.99,93,1,1.29,BR,1692826842
25,bawal,28.0833,76.5833,26.76,67,99,3.21,IN,1692826853
26,xining,36.6167,101.7667,9.54,67,12,1.1,CN,1692826854
27,bredasdorp,-34.5322,20.0403,8.08,78,16,2.29,ZA,1692826852
28,lebu,-37.6167,-73.65,9.15,83,72,3.69,CL,1692826855
29,tierra nueva,21.6833,-100.5667,22.84,61,76,7.68,MX,1692826856
30,adamstown,-25.066,-130.1015,18.34,66,46,9.98,PN,1692826857
31,puerto ayora,-0.7393,-90.3518,26.98,87,100,3.58,EC,1692826665
32,blackmans bay,-43.0167,147.3167,7.07,90,100,2.86,AU,1692826858
33,kemin,42.7846,75.6892,19.35,46,52,3.03,KG,1692826859
34,tiksi,71.6872,128.8694,4.07,85,68,1.42,RU,1692826859
35,atafu village,-8.5421,-172.5159,27.25,81,81,6.73,TK,1692826839
36,yellowknife,62.456,-114.3525,20.31,65,75,6.71,CA,1692826861
37,badger,64.8,-147.5333,16.66,85,100,2.06,US,1692826621
38,hammerfest,70.6634,23.6821,11.25,82,75,2.06,NO,1692826862
39,sur,22.5667,59.5289,31.55,55,100,4.52,OM,1692826863
40,kingston,17.997,-76.7936,30.53,78,20,2.57,JM,1692826594
41,georgetown,5.4112,100.3354,26.68,97,40,1.54,MY,1692826753
42,barclayville,4.6797,-8.2339,24.63,90,65,1.93,LR,1692826866
43,stiens,53.2623,5.7577,17.99,100,15,0.0,NL,1692826866
44,pariaman,-0.619,100.12,24.03,89,49,1.44,ID,1692826867
45,thompson,55.7435,-97.8558,22.09,46,40,3.09,CA,1692826869
46,akureyri,65.6835,-18.0878,9.96,87,75,2.57,IS,1692826856
47,saipan,15.1355,145.701,28.39,100,40,2.57,MP,1692826865
48,ancud,-41.8697,-73.8203,6.56,66,15,3.47,CL,1692826871
49,shingu,33.7333,135.9833,25.92,92,98,2.06,JP,1692826872
50,magadan,59.5667,150.8,13.63,79,100,1.11,RU,1692826873
51,olonkinbyen,70.9221,-8.7187,6.04,83,100,1.28,SJ,1692826874
52,nizhniy odes,63.6445,54.856,7.38,95,100,5.03,RU,1692826875
53,carnarvon,-24.8667,113.6333,16.37,75,0,5.12,AU,1692826875
54,albany,42.6001,-73.9662,25.81,48,52,0.45,US,1692826595
55,chinchilla,-26.75,150.6333,14.24,46,0,2.03,AU,1692826877
56,forster,-32.1667,152.5167,15.79,68,83,3.49,AU,1692826878
57,sao joao da barra,-21.6403,-41.0511,26.05,88,4,7.06,BR,1692826879
58,hermanus,-34.4187,19.2345,6.56,69,35,1.62,ZA,1692826879
59,bethel,41.3712,-73.414,25.85,53,0,2.06,US,1692826744
60,hawaiian paradise park,19.5933,-154.9731,27.07,77,100,2.57,US,1692826881
61,kutum,14.2,24.6667,25.55,55,33,2.58,SD,1692826882
62,puerto armuelles,8.2833,-82.8667,25.05,87,100,1.79,PA,1692826883
63,bridgewater,44.3835,-64.5155,21.82,43,1,3.09,CA,1692826740
64,tamiahua,21.2667,-97.45,31.05,62,100,4.79,MX,1692826884
65,cikampek,-6.4197,107.4558,22.4,84,23,1.52,ID,1692826885
66,guerrero negro,27.9769,-114.0611,24.44,65,4,7.17,MX,1692826886
67,crane,31.3974,-102.3501,30.51,44,95,8.55,US,1692826858
68,pisco,-13.7,-76.2167,21.03,73,40,3.6,PE,1692826888
69,broome,42.2506,-75.833,23.21,53,100,2.06,US,1692826888
70,west island,-12.1568,96.8225,24.99,73,40,4.12,CC,1692826844
71,ushuaia,-54.8,-68.3,1.81,64,0,5.66,AR,1692826890
72,carauari,-4.8828,-66.8958,32.75,37,59,0.84,BR,1692826706
73,codajas,-3.8367,-62.0569,33.69,36,70,2.08,BR,1692826891
74,vilyuchinsk,52.9306,158.4028,15.15,93,100,1.62,RU,1692826892
75,constantia,44.1833,28.65,24.28,78,0,3.71,RO,1692826893
76,mandal,25.45,74.5667,23.31,80,99,4.61,IN,1692826894
77,howrah,22.5892,88.3103,26.0,89,75,1.54,IN,1692826895
78,kavieng,-2.5744,150.7967,27.69,78,100,6.4,PG,1692826895
79,ondjiva,-17.0667,15.7333,20.02,19,1,1.03,AO,1692826896
80,enewetak,11.3474,162.3373,27.9,72,100,1.05,MH,1692826846
81,anadyr,64.75,177.4833,6.28,75,75,7.0,RU,1692826899
82,charters towers,-20.1,146.2667,17.5,62,1,3.43,AU,1692826899
83,ormara,25.2088,64.6357,26.55,90,46,8.5,PK,1692826900
84,dudinka,69.4058,86.1778,11.46,93,84,6.61,RU,1692826901
85,la passe,45.5549,-0.8967,30.13,53,0,2.66,FR,1692826902
86,rongelap,11.1635,166.8941,27.98,76,97,3.45,MH,1692826902
87,kapuskasing,49.4169,-82.4331,24.05,46,75,4.12,CA,1692826903
88,sitka,57.0531,-135.33,15.94,72,75,1.54,US,1692826904
89,papatowai,-46.5619,169.4708,11.16,77,96,1.6,NZ,1692826905
90,udachny,66.4167,112.4,8.03,56,17,2.38,RU,1692826905
91,keflavik,64.0049,-22.5624,12.95,87,0,5.14,IS,1692826847
92,carazinho,-28.2839,-52.7864,25.69,81,2,2.79,BR,1692826907
93,mandalgovi,45.7625,106.2708,10.39,62,13,2.08,MN,1692826907
94,bukama,-9.2,25.85,26.17,21,92,0.42,CD,1692826909
95,naxos,37.1056,25.3764,29.06,62,21,2.68,GR,1692826910
96,remire-montjoly,4.9167,-52.2667,29.02,70,19,2.57,GF,1692826910
97,harper,4.375,-7.7169,24.79,89,15,2.7,LR,1692826911
98,lajas,18.05,-67.0593,29.84,70,98,3.58,PR,1692826912
99,kavaratti,10.5669,72.642,27.69,72,99,3.49,IN,1692826913
100,vila franca do campo,37.7167,-25.4333,21.23,81,37,2.99,PT,1692826913
101,popondetta,-8.7537,148.2534,25.2,85,69,0.48,PG,1692826914
102,armacao de buzios,-22.7469,-41.8817,24.09,70,0,4.74,BR,1692826915
103,contai,21.7786,87.7536,27.58,87,100,3.87,IN,1692826916
104,lompoc,34.6391,-120.4579,33.9,76,100,4.12,US,1692826876
105,weno,7.4515,151.8468,26.97,94,100,6.17,FM,1692826917
106,songjianghe,42.1859,127.479,14.81,95,2,0.62,CN,1692826918
107,calama,-22.4667,-68.9333,14.27,2,0,9.26,CL,1692826869
108,valday,57.9747,33.2525,10.47,100,50,1.54,RU,1692826920
109,longyearbyen,78.2186,15.6401,5.91,87,100,1.03,SJ,1692826921
110,al bayda,32.7627,21.7551,24.34,40,0,3.35,LY,1692826922
111,nagqu,31.5,92.0,4.5,92,100,0.61,CN,1692826923
112,al bawiti,28.3492,28.8659,27.37,32,0,3.96,EG,1692826924
113,phalaborwa,-23.943,31.1411,23.39,34,17,6.84,ZA,1692826925
114,alo,7.4178,6.7371,23.61,98,66,1.23,NG,1692826925
115,port mathurin,-19.6833,63.4167,22.49,74,56,11.62,MU,1692826926
116,pokaran,26.9167,71.9167,26.4,71,60,9.53,IN,1692826927
117,illizi,26.4833,8.4667,30.89,18,3,5.81,DZ,1692826928
118,coracao de jesus,-16.6853,-44.365,26.96,24,25,1.12,BR,1692826928
119,xilitla,21.3333,-98.9667,24.87,90,100,0.94,MX,1692826929
120,qaqortoq,60.7167,-46.0333,9.43,97,100,2.57,GL,1692826930
121,aasiaat,68.7098,-52.8699,3.61,93,100,2.49,GL,1692826931
122,sirte,31.2089,16.5887,27.19,72,0,4.15,LY,1692826932
123,mangrol,21.1167,70.1167,26.91,84,100,7.77,IN,1692826933
124,betio village,1.358,172.9211,30.02,70,45,2.45,KI,1692826933
125,terrace,54.5163,-128.6035,19.95,63,100,2.06,CA,1692826934
126,luganville,-15.5333,167.1667,24.31,78,86,4.87,VU,1692826935
127,aswan,24.0934,32.907,36.61,16,0,3.09,EG,1692826936
128,kaitong,44.8135,123.15,16.72,72,23,2.64,CN,1692826937
129,tsiombe,-25.3,45.4833,21.61,64,0,1.77,MG,1692826937
130,san luis,-33.295,-66.3356,10.87,55,88,9.64,AR,1692826902
131,christchurch,-43.5333,172.6333,10.51,83,100,1.54,NZ,1692826678
132,san sebastian de la gomera,28.0916,-17.1133,27.2,61,0,2.57,ES,1692826940
133,talnakh,69.4865,88.3972,11.23,87,97,5.41,RU,1692826867
134,sinalunga,43.2152,11.7495,26.53,48,1,1.37,IT,1692826941
135,coyuca de catalan,18.3333,-100.65,34.01,49,71,0.76,MX,1692826943
136,carutapera,-1.195,-46.02,26.16,76,27,4.15,BR,1692826944
137,bulayevo,54.9056,70.4439,12.11,93,99,4.63,KZ,1692826945
138,punta arenas,-53.15,-70.9167,0.62,86,88,7.15,CL,1692826747
139,queenstown,-31.8976,26.8753,5.54,71,4,1.64,ZA,1692826946
140,hailey,43.5196,-114.3153,28.27,39,75,0.0,US,1692826947
141,ola,59.5833,151.2833,13.97,83,100,0.95,RU,1692826948
142,wailua homesteads,22.0669,-159.378,30.24,73,40,6.17,US,1692826949
143,moab,38.5733,-109.5498,32.01,37,73,4.76,US,1692826949
144,hasaki,35.7333,140.8333,27.39,86,0,4.63,JP,1692826950
145,namibe,-15.1961,12.1522,17.07,86,8,0.82,AO,1692826848
146,mount pearl,47.5166,-52.7813,15.19,97,100,3.09,CA,1692826952
147,touros,-5.1989,-35.4608,24.88,82,0,5.57,BR,1692826870
148,tura,25.5198,90.2201,23.48,99,100,1.59,IN,1692826953
149,saint-philippe,-21.3585,55.7679,20.77,78,56,6.12,RE,1692826954
150,qamdo,31.1667,97.2333,4.48,89,100,1.46,CN,1692826955
151,bhimunipatnam,17.8833,83.4333,28.06,79,100,1.97,IN,1692826955
152,taoudenni,22.6783,-3.9836,38.14,20,88,3.47,ML,1692826931
153,afaahiti,-17.75,-149.2833,26.93,66,42,3.1,PF,1692826957
154,myskhako,44.6714,37.7433,15.88,55,0,3.25,RU,1692826958
155,chonchi,-42.6128,-73.8092,8.56,85,40,1.32,CL,1692826959
156,houghton,47.1219,-88.569,18.69,98,100,4.12,US,1692826822
157,zhob,31.3411,69.4481,28.44,25,100,2.6,PK,1692826961
158,dunedin,-45.8742,170.5036,10.6,83,100,0.45,NZ,1692826801
159,lerwick,60.1545,-1.1494,13.0,88,18,4.39,GB,1692826962
160,kununurra,-15.7667,128.7333,23.99,23,0,5.14,AU,1692826963
161,piti village,13.4626,144.6933,27.03,93,100,3.6,GU,1692826964
162,margaret river,-33.95,115.0667,14.43,75,100,3.34,AU,1692826964
163,susuman,62.7833,148.1667,9.53,90,100,1.56,RU,1692826965
164,whitehorse,60.7161,-135.0538,24.5,35,20,1.03,CA,1692826773
165,karratha,-20.7377,116.8463,20.96,43,0,4.07,AU,1692826966
166,auki,-8.7676,160.7034,27.29,76,58,2.51,SB,1692826967
167,banda aceh,5.5577,95.3222,26.23,82,100,2.79,ID,1692826968
168,jeremie,18.65,-74.1167,29.27,75,99,0.66,HT,1692826969
169,fisterra,42.9049,-9.2629,21.12,87,100,2.81,ES,1692826969
170,miyaly,48.8844,53.7836,19.18,41,21,1.89,KZ,1692826970
171,agat village,13.3886,144.6585,27.06,93,100,3.6,GU,1692826971
172,realeza,-25.7689,-53.5325,23.79,55,0,0.63,BR,1692826973
173,cambridge,43.3601,-80.3127,18.27,95,100,3.6,CA,1692826974
174,chechelnyk,48.8353,26.6484,17.95,75,20,2.94,UA,1692826974
175,tromso,69.6496,18.957,10.21,87,75,5.14,NO,1692826975
176,kailua-kona,19.6406,-155.9956,29.72,74,40,4.63,US,1692826976
177,sosnovo-ozerskoye,52.5249,111.5418,9.44,89,77,0.53,RU,1692826977
178,ishigaki,24.3448,124.1572,28.07,89,20,2.57,JP,1692826977
179,rikaze,29.25,88.8833,13.46,71,100,0.75,CN,1692826979
180,cururupu,-1.8283,-44.8683,24.25,82,6,1.8,BR,1692826979
181,lata,40.1629,-8.3327,20.6,82,0,0.84,PT,1692826980
182,utrik,11.2278,169.8474,28.1,75,86,3.87,MH,1692826981
183,neon karlovasion,37.7903,26.7044,28.28,71,15,0.86,GR,1692826982
184,tolanaro,-25.0319,46.9987,22.04,83,20,8.23,MG,1692826983
185,cabo san lucas,22.8909,-109.9124,34.78,70,20,4.63,MX,1692826983
186,east london,-33.0153,27.9116,13.95,60,4,7.12,ZA,1692826984
187,sisimiut,66.9395,-53.6735,8.83,82,77,0.32,GL,1692826985
188,margate,51.3813,1.3862,19.94,81,98,1.79,GB,1692826986
189,tame,6.461,-71.73,29.36,72,94,0.9,CO,1692826986
190,villa gesell,-37.2639,-56.973,11.7,78,51,4.87,AR,1692826987
191,yaren,-0.5472,166.916,27.8,79,41,4.01,NR,1692826988
192,ilulissat,69.2167,-51.1,9.01,81,75,3.6,GL,1692826989
193,mirnyy,62.5353,113.9611,9.02,70,99,1.07,RU,1692826989
194,shaoxing,30.011,120.5715,25.97,96,3,0.38,CN,1692826990
195,dourbali,11.8091,15.8632,25.05,81,97,7.15,TD,1692826991
196,waverly,42.7392,-84.6208,33.05,69,20,7.2,US,1692826992
197,dwarka,22.2394,68.9678,26.83,84,100,8.76,IN,1692826993
198,kodiak,57.79,-152.4072,16.73,72,20,4.63,US,1692826993
199,preobrazheniye,42.9019,133.9064,22.02,99,99,0.71,RU,1692826994
200,pacific grove,36.6177,-121.9166,32.53,78,0,4.02,US,1692826737
201,robore,-18.3333,-59.75,37.05,41,1,7.72,BO,1692826996
202,ad dabbah,18.05,30.95,33.52,34,100,0.96,SD,1692826997
203,grand falls-windsor,48.9332,-55.6649,18.61,73,43,0.89,CA,1692826997
204,alesund,62.4723,6.1549,15.42,84,75,4.12,NO,1692826925
205,okhotsk,59.3833,143.3,13.79,91,100,5.47,RU,1692826999
206,hajin,34.6927,40.827,34.89,16,0,3.68,SY,1692827000
207,sorong,-0.8833,131.25,25.06,91,100,4.22,ID,1692827000
208,sarupathar,26.1984,93.8094,24.1,98,100,1.05,IN,1692827001
209,rio grande,-32.035,-52.0986,16.06,84,91,5.72,BR,1692827002
210,lihue,21.9789,-159.3672,30.58,66,40,6.17,US,1692827004
211,jamestown,42.097,-79.2353,17.79,90,20,3.09,US,1692827004
212,praia da vitoria,38.7333,-27.0667,21.14,83,40,5.57,PT,1692827005
213,chabahar,25.2919,60.643,28.7,81,77,1.59,IR,1692827006
214,tofol,5.3248,163.0078,28.35,70,6,2.17,FM,1692827007
215,morro do chapeu,-11.55,-41.1561,21.72,53,37,3.62,BR,1692827008
216,galle,6.0367,80.217,27.12,79,41,4.79,LK,1692827008
217,ixtapa,20.7,-105.2,32.9,74,75,5.14,MX,1692827009
218,colonia,50.9333,6.95,21.64,72,0,0.51,DE,1692826861
219,kapa'a,22.0752,-159.319,30.99,73,40,6.17,US,1692827011
220,nouadhibou,20.931,-17.0347,24.99,83,1,5.66,MR,1692827012
221,petropavlovsk-kamchatsky,53.0452,158.6483,14.33,100,100,3.0,RU,1692827013
222,mucuri,-18.0864,-39.5508,24.51,82,0,6.11,BR,1692827013
223,san antonio de pale,-1.4014,5.6325,23.26,89,4,2.33,GQ,1692826961
224,ta`u,-14.2336,-169.5144,26.65,68,50,7.5,AS,1692827015
225,avarua,-21.2078,-159.775,25.03,69,40,5.66,CK,1692827016
226,saldanha,-33.0117,17.9442,7.03,72,8,2.22,ZA,1692827016
227,heber springs,35.4915,-92.0313,37.41,30,51,2.55,US,1692826801
228,valdivia,-39.8142,-73.2459,11.05,89,42,1.0,CL,1692827018
229,portland,45.5234,-122.6762,27.04,44,75,4.12,US,1692826853
230,polyarnyy,69.1989,33.4478,7.37,86,17,1.13,RU,1692826919
231,invercargill,-46.4,168.35,8.9,91,88,0.89,NZ,1692827020
232,miracema do tocantins,-9.5618,-48.3967,32.61,32,42,1.11,BR,1692827021
233,steinbach,50.1667,8.5667,21.88,65,0,2.06,DE,1692827022
234,along,28.1667,94.7667,23.27,100,100,0.54,IN,1692827024
235,lasem,-6.6922,111.4527,23.07,75,22,3.33,ID,1692827025
236,coronel dorrego,-38.7187,-61.2873,9.68,36,0,5.51,AR,1692826761
237,hanceville,34.0607,-86.7675,36.4,39,7,1.67,US,1692827026
238,bam,29.106,58.357,28.68,16,0,4.1,IR,1692827027
239,terbanggi besar,-4.8667,105.2333,23.28,91,17,2.06,ID,1692827028
240,la sarre,48.8002,-79.1996,21.1,54,75,0.35,CA,1692826864
241,holualoa,19.6228,-155.9522,27.65,74,40,4.63,US,1692827029
242,abong mbang,3.9833,13.1833,20.01,99,100,1.55,CM,1692826964
243,new norfolk,-42.7826,147.0587,7.73,83,100,1.22,AU,1692827022
244,newman,37.3138,-121.0208,35.59,18,0,0.96,US,1692827009
245,seddouk,36.5472,4.6861,22.66,45,0,1.06,DZ,1692827032
246,baturite,-4.3286,-38.8847,24.57,64,3,2.14,BR,1692827033
247,bolondron,22.7633,-81.4469,29.11,53,86,7.13,CU,1692827034
248,nuriootpa,-34.4833,139.0,8.61,73,5,2.44,AU,1692826954
249,hatillo,18.4863,-66.8254,30.62,86,100,2.08,PR,1692827035
250,mili,6.0815,171.735,27.65,77,100,4.62,MH,1692827036
251,vernon,50.2581,-119.2691,21.53,42,62,1.54,CA,1692827037
252,college,64.8569,-147.8028,16.71,84,75,2.06,US,1692826905
253,walvis bay,-22.9575,14.5053,13.53,82,0,2.57,NA,1692827039
254,borujerd,33.8973,48.7516,25.08,18,1,2.8,IR,1692827039
255,mount isa,-20.7333,139.5,14.87,36,3,3.09,AU,1692827040
256,severo-yeniseyskiy,60.3725,93.0408,14.28,76,100,2.02,RU,1692826887
257,yuzhno-kurilsk,44.0306,145.8556,21.58,96,98,2.97,RU,1692827042
258,taunsa,30.7048,70.6505,34.65,33,47,6.42,PK,1692827043
259,labrador city,52.9463,-66.9114,12.95,50,75,4.63,CA,1692826810
260,el calafate,-50.3408,-72.2768,-0.49,76,24,1.04,AR,1692827045
261,caminauit,12.3314,121.0825,26.49,82,90,0.87,PH,1692827046
262,manicaragua,22.1494,-79.9736,30.25,74,100,4.95,CU,1692827047
263,kurumkan,54.3,110.3,12.59,90,58,0.8,RU,1692827048
264,pestravka,52.405,49.9583,14.41,54,79,0.49,RU,1692827049
265,paros,37.0833,25.15,29.4,74,4,2.38,GR,1692827050
266,fale old settlement,-9.3852,-171.2468,27.83,79,87,8.07,TK,1692827051
267,san patricio,28.017,-97.5169,34.19,55,25,6.38,US,1692827052
268,hithadhoo,-0.6,73.0833,27.44,78,100,5.81,MV,1692826876
269,kenai,60.5544,-151.2583,16.05,86,100,3.09,US,1692827053
270,tazovsky,67.4667,78.7,9.45,89,99,3.11,RU,1692827054
271,gelendzhik,44.5731,38.0747,20.51,59,0,3.12,RU,1692826910
272,kalmunai,7.4167,81.8167,26.14,83,53,3.59,LK,1692827055
273,nishinoomote,30.7333,131.0,27.6,80,100,0.79,JP,1692827056
274,itacare,-14.2775,-38.9967,23.33,89,0,2.74,BR,1692827057
275,port elizabeth,-33.918,25.5701,13.16,71,0,8.23,ZA,1692826863
276,port alfred,-33.5906,26.891,13.65,58,0,7.98,ZA,1692827059
277,fort bragg,35.139,-79.006,32.17,31,0,3.6,US,1692827060
278,angra do heroismo,38.65,-27.2167,21.34,78,40,1.79,PT,1692827061
279,kirkland lake,48.1446,-80.0377,23.16,43,89,2.57,CA,1692827062
280,iaciara,-14.0958,-46.6317,30.52,26,76,2.61,BR,1692827063
281,ornskoldsvik,63.2909,18.7153,14.53,100,100,1.54,SE,1692827064
282,umluj,25.0213,37.2685,31.18,72,76,4.2,SA,1692827064
283,tual,-5.6667,132.75,25.28,87,84,8.48,ID,1692827065
284,hovd,48.0056,91.6419,16.85,50,100,1.5,MN,1692827066
285,natal,-5.795,-35.2094,26.12,83,20,5.14,BR,1692827067
286,zhigalovo,54.8097,105.1578,13.57,76,95,0.59,RU,1692827067
287,korhogo,9.45,-5.6333,22.88,93,100,2.13,CI,1692827068
288,jiagedaqi,50.4167,124.1167,12.48,95,53,1.88,CN,1692827069
289,talcahuano,-36.7167,-73.1167,11.82,66,20,3.6,CL,1692826922
290,shenjiamen,29.9576,122.298,25.98,82,43,0.99,CN,1692827071
291,zaranj,30.9667,61.8833,31.98,14,6,15.0,AF,1692827072
292,ain sefra,32.75,-0.5833,28.13,29,20,2.25,DZ,1692827073
293,kargasok,59.0556,80.8572,14.38,75,82,6.34,RU,1692827073
294,phek,25.6667,94.5,16.46,99,100,0.77,IN,1692827074
295,zheshart,62.0731,49.5733,7.4,98,100,3.12,RU,1692827075
296,aykhal,66.0,111.5,8.38,58,19,2.93,RU,1692827076
297,olyokminsk,60.3736,120.4264,8.15,68,0,0.42,RU,1692827076
298,madang,-5.2246,145.7966,24.53,91,100,1.1,PG,1692827077
299,yangjiang,21.85,111.9667,25.96,90,47,2.11,CN,1692827078
300,ketchikan,55.3422,-131.6461,17.26,67,100,3.09,US,1692827079
301,papao,-17.75,-149.55,27.82,64,35,2.17,PF,1692827079
302,luderitz,-26.6481,15.1594,14.77,73,21,7.08,NA,1692827080
303,westport,41.1415,-73.3579,26.27,49,0,3.6,US,1692827082
304,safonovo,55.15,33.2167,11.43,95,9,2.55,RU,1692827083
305,selfoss,63.9331,-20.9971,13.91,80,32,0.09,IS,1692827026
306,cochrane,51.1834,-114.4687,23.28,39,0,7.72,CA,1692827084
307,bolkhov,53.4433,36.0044,12.13,91,0,3.55,RU,1692827085
308,bentiu,9.2333,29.8333,24.77,70,55,0.28,SS,1692827086
309,conkal,21.0667,-89.5333,31.03,55,75,3.6,MX,1692827086
310,waiuku,-37.25,174.75,11.64,86,88,0.48,NZ,1692827087
311,bada,51.392,109.8717,10.59,95,100,0.76,RU,1692827088
312,sergeyevka,53.88,67.4158,11.02,91,98,3.95,KZ,1692827088
313,caleta de carquin,-11.0925,-77.6267,20.78,78,29,5.21,PE,1692827089
314,masterton,-40.9597,175.6575,9.38,70,4,1.0,NZ,1692827090
315,guiglo,6.5456,-7.4966,22.66,98,9,0.62,CI,1692827091
316,naze,28.3667,129.4833,23.51,82,84,1.97,JP,1692827091
317,magdalena,14.1999,121.429,26.27,94,58,1.4,PH,1692827092
318,kifri,34.6959,44.9661,36.7,11,0,4.16,IQ,1692827093
319,trenton,40.217,-74.7429,26.77,52,20,2.06,US,1692826983
320,slavyanka,42.8633,131.3847,21.24,96,94,2.79,RU,1692826979
321,mpulungu,-8.7623,31.1141,25.28,39,0,3.36,ZM,1692827096
322,hilo,19.7297,-155.09,27.19,74,100,2.57,US,1692826858
323,lagunas,-5.2269,-75.6753,30.06,60,99,0.06,PE,1692827097
324,vrede,-27.4257,29.1659,10.87,28,0,2.09,ZA,1692827098
325,haskovo,41.9403,25.5694,26.79,40,27,1.61,BG,1692827098
326,katsuren-haebaru,26.3369,127.8719,28.43,94,20,2.57,JP,1692827100
327,sittwe,20.15,92.9,26.21,89,98,2.26,MM,1692827101
328,acarau,-2.8856,-40.12,26.13,74,6,7.25,BR,1692826921
329,garissa,-0.4536,39.6401,24.11,66,0,7.24,KE,1692827102
330,greenville,35.6127,-77.3663,30.09,44,40,3.09,US,1692827105
331,chibougamau,49.9168,-74.3659,21.79,40,0,3.09,CA,1692826858
332,port isabel,26.0734,-97.2086,34.05,71,0,6.17,US,1692827106
333,tannum sands,-23.9504,151.3693,17.08,88,0,3.09,AU,1692827107
334,williams lake,52.1415,-122.1445,12.25,89,100,3.6,CA,1692826893
335,hadibu,12.65,54.0333,26.4,82,42,6.86,YE,1692827109
336,crucecita,-28.95,-58.9833,19.11,56,11,5.69,AR,1692827109
337,soto la marina,23.7667,-98.2167,32.88,52,100,6.19,MX,1692827115
338,zapadnaya dvina,56.259,32.0745,11.65,98,10,2.05,RU,1692826938
339,bilbays,30.4204,31.5622,27.46,74,0,2.52,EG,1692827118
340,gambela,8.25,34.5833,21.9,88,90,1.5,ET,1692827119
341,kruisfontein,-34.0033,24.7314,10.59,67,27,6.16,ZA,1692827120
342,tuma,55.148,40.5537,12.1,92,66,1.61,RU,1692827124
343,filiasi,44.55,23.5167,27.29,47,11,1.75,RO,1692827126
344,lianzhou,24.7811,112.3825,23.98,98,66,0.47,CN,1692827128
345,la ronge,55.1001,-105.2842,18.14,72,75,2.57,CA,1692827026
346,aguas vermelhas,-15.7472,-41.46,23.86,55,17,2.93,BR,1692827133
347,grand-lahou,5.1367,-5.0242,23.83,94,41,2.47,CI,1692827135
348,nelson bay,-32.7167,152.15,17.22,71,91,3.13,AU,1692827135
349,ust-nera,64.5667,143.2,6.13,98,100,0.95,RU,1692827136
350,grantsville,40.5999,-112.4644,30.56,45,40,2.57,US,1692827137
351,anatuya,-28.4606,-62.8347,19.86,39,91,4.38,AR,1692827138
352,dryden,49.7833,-92.7503,19.16,72,100,2.06,CA,1692827138
353,pailon,-17.65,-62.75,33.5,24,3,6.09,BO,1692827139
354,trinidad,-14.8333,-64.9,35.99,44,20,4.63,BO,1692827021
355,chern',53.4523,36.9145,12.14,92,24,3.48,RU,1692827026
356,port saint john's,-31.6229,29.5448,16.57,59,100,5.66,ZA,1692827141
357,bardai,11.65,7.2333,21.17,87,92,6.33,NG,1692827142
358,bamboo flat,11.7,92.7167,26.05,89,75,1.03,IN,1692827143
359,lom,43.8139,23.2361,26.75,37,4,2.07,BG,1692827144
360,gebeit,21.0667,36.3167,33.59,41,1,0.41,SD,1692827145
361,eyl,7.9803,49.8164,25.54,78,92,9.74,SO,1692827145
362,irymple,-34.25,142.1667,9.26,64,1,3.56,AU,1692827146
363,eastham,41.8301,-69.9739,22.18,53,0,1.34,US,1692827147
364,iwon-up,40.3231,128.6553,21.81,84,98,2.62,KP,1692827148
365,at-bashi,41.1702,75.8106,11.64,57,28,0.37,KG,1692827148
366,ocean city,39.2776,-74.5746,24.44,63,65,3.58,US,1692827149
367,merizo village,13.2658,144.6691,26.85,80,100,4.3,GU,1692827150
368,abu zabad,12.35,29.25,26.64,55,29,3.07,SD,1692827151
369,fort mcmurray,56.7268,-111.381,19.77,82,75,4.63,CA,1692827153
370,nyrob,60.733,56.7202,8.29,96,100,3.85,RU,1692827153
371,fuling,29.7022,107.3919,24.49,84,100,0.41,CN,1692827154
372,ciudad lazaro cardenas,17.9583,-102.2,31.17,67,100,5.83,MX,1692826954
373,chupaca,-12.0667,-75.2833,17.66,38,75,4.55,PE,1692827155
374,port hedland,-20.3167,118.5667,17.03,51,0,3.09,AU,1692827156
375,leninskoye,41.7589,69.3864,24.77,25,0,2.13,KZ,1692827157
376,belcista,41.3028,20.8303,21.33,52,58,0.47,MK,1692827158
377,nantucket,41.2835,-70.0995,23.03,52,0,4.12,US,1692827158
378,inhambane,-23.865,35.3833,21.74,91,1,4.69,MZ,1692827159
379,puerto san jose,13.9256,-90.8244,28.48,75,97,3.91,GT,1692827161
380,nemuro,43.3236,145.575,19.72,99,100,5.02,JP,1692827162
381,la paz,-16.5,-68.15,18.99,19,20,3.6,BO,1692827163
382,sao tome,0.3365,6.7273,24.81,84,60,3.11,ST,1692827164
383,pemba,-12.974,40.5178,25.39,83,20,2.06,MZ,1692827164
384,dolores,-36.3132,-57.6792,11.04,57,87,3.48,AR,1692827165
385,machico,32.7,-16.7667,26.11,73,20,1.03,PT,1692827166
386,quatre cocos,-20.2078,57.7625,22.27,61,87,7.25,MU,1692827167
387,zhumysker,49.3333,49.4,20.29,43,35,1.32,KZ,1692827167
388,conception bay south,47.4999,-52.9981,16.69,94,100,1.64,CA,1692827168
389,tommot,58.9564,126.2925,9.13,77,93,0.58,RU,1692827169
390,ulanhot,46.0833,122.0833,14.14,74,53,2.84,CN,1692827170
391,borzya,50.3833,116.5167,11.97,54,99,1.87,RU,1692827170
392,ulsteinvik,62.3432,5.8487,15.42,86,35,0.89,NO,1692827171
393,ak-dovurak,51.1833,90.6,12.75,72,63,0.36,RU,1692827172
394,changji,44.0167,87.3167,23.44,40,0,2.0,CN,1692827172
395,saint-pierre,-21.3393,55.4781,21.43,83,20,2.06,RE,1692827173
396,wynyard,-41.0,145.7167,9.61,93,95,0.91,AU,1692827174
397,matadi,-5.8167,13.45,24.19,76,39,3.88,CD,1692827175
398,pindi gheb,33.2402,72.2661,31.54,58,35,7.46,PK,1692827176
399,n'zeto,-7.2312,12.8666,21.92,85,29,1.92,AO,1692827177
400,lhasa,29.65,91.1,12.58,81,100,1.18,CN,1692827178
401,gillette,44.2911,-105.5022,31.68,22,0,3.6,US,1692827027
402,san pedro pochutla,15.7333,-96.4667,31.51,70,100,2.97,MX,1692827181
403,ilawa,53.596,19.5685,19.36,65,92,1.66,PL,1692827181
404,picota,-6.9197,-76.3304,32.27,62,72,1.7,PE,1692827182
405,beau vallon,-20.4189,57.6953,22.34,68,40,6.69,MU,1692827183
406,bawku,11.0616,-0.2417,24.57,88,95,2.71,GH,1692827184
407,gunnison,38.7,-107.0673,23.47,25,46,3.66,US,1692827184
408,tabou,4.423,-7.3528,24.71,91,51,2.65,CI,1692827185
409,rabo de peixe,37.8,-25.5833,20.73,73,20,2.57,PT,1692827186
410,manay,7.215,126.5397,25.62,83,68,2.84,PH,1692827186
411,alofi,-19.0595,-169.9187,23.94,69,75,7.2,NU,1692827187
412,kulachi,31.9286,70.4592,35.24,33,79,3.39,PK,1692827188
413,umm kaddadah,13.6017,26.6876,31.41,42,22,3.47,SD,1692827189
414,ar rutbah,33.0381,40.2848,33.4,21,1,2.22,IQ,1692827189
415,broken hill,-31.95,141.4333,9.88,45,0,2.55,AU,1692827190
416,gurun,5.8172,100.4738,25.88,93,99,0.62,MY,1692827191
417,kyzyl-suu,42.3414,78.0056,14.45,55,41,1.43,KG,1692827192
418,alexandria,31.2156,29.9553,24.3,66,0,2.19,EG,1692827192
419,visakhapatnam,17.69,83.2093,28.56,76,100,2.59,IN,1692827193
420,la'ie,21.6477,-157.9253,30.98,65,9,3.58,US,1692827194
421,geraldton,-28.7667,114.6,5.23,93,4,2.06,AU,1692827194
422,morehead city,34.7229,-76.726,29.45,57,0,4.12,US,1692827086
423,antsiranana,-12.2787,49.2917,22.95,82,6,8.26,MG,1692827196
424,puerto madryn,-42.7692,-65.0385,9.28,36,8,6.77,AR,1692827197
425,waingapu,-9.6567,120.2641,23.14,85,6,4.23,ID,1692827197
426,paracuru,-3.41,-39.0306,27.28,81,2,3.74,BR,1692827198
427,flying fish cove,-10.4217,105.6791,23.82,83,100,6.17,CX,1692827199
428,tamanrasset,22.785,5.5228,30.95,22,40,2.06,DZ,1692827200
429,eforie sud,44.0229,28.6494,24.45,78,0,3.83,RO,1692827200
430,uturoa,-16.7333,-151.4333,24.15,61,70,2.52,PF,1692827201
431,iskateley,67.6803,53.1512,7.08,89,97,8.17,RU,1692827202
432,arua,3.0201,30.9111,18.6,68,65,1.17,UG,1692827203
433,namtsy,62.7161,129.6658,9.02,78,76,1.43,RU,1692827203
434,argostolion,38.1811,20.489,28.29,51,60,2.18,GR,1692827204
435,yeed,4.55,43.0333,24.82,61,6,7.95,SO,1692827205
436,island harbour,50.724,-1.2758,18.32,88,95,0.45,GB,1692827206
437,altamira,-3.2033,-52.2064,31.05,58,20,2.57,BR,1692827206
438,sandnessjoen,66.0217,12.6316,13.06,94,20,2.57,NO,1692827207
439,qarqaraly,49.4058,75.4742,19.56,40,24,3.05,KZ,1692827208
440,bodo,67.28,14.405,14.02,95,75,1.03,NO,1692827208
441,bonanza,14.0289,-84.591,27.85,72,87,0.65,NI,1692827209
442,puerto palomas,31.7667,-107.6167,19.97,78,100,5.86,MX,1692827210
443,dutsen wai,10.8501,8.199,21.26,95,92,2.57,NG,1692827211
444,walla walla,46.0646,-118.343,25.83,41,0,3.58,US,1692826931
445,saint-francois,46.4154,3.9054,25.69,61,0,1.54,FR,1692827212
446,kirensk,57.7853,108.1119,12.06,92,98,0.3,RU,1692827213
447,codrington,-38.2667,141.9667,7.72,86,99,5.73,AU,1692827213
448,ar ruseris,11.8659,34.3869,24.4,81,87,1.86,SD,1692827214
449,isangel,-19.55,169.2667,22.06,83,75,1.03,VU,1692827216
450,arraial do cabo,-22.9661,-42.0278,23.98,78,0,3.6,BR,1692827216
451,balabac,7.9868,117.0645,27.33,78,100,2.13,PH,1692827091
452,st. john's,47.5649,-52.7093,15.66,97,100,3.09,CA,1692827148
453,adrar,20.5022,-10.0711,36.93,24,51,3.08,MR,1692827218
454,yandev,7.3667,9.05,23.89,89,100,4.78,NG,1692827219
455,kurchatov,51.6601,35.6521,12.23,79,2,3.07,RU,1692827220
456,namdrik,5.5994,168.1028,28.07,69,47,1.59,MH,1692827221
457,carloforte,39.145,8.3058,26.77,69,0,4.07,IT,1692827222
458,khandyga,62.6667,135.6,9.43,87,98,1.11,RU,1692827222
459,qui nhon,13.7667,109.2333,27.16,75,82,2.2,VN,1692827223
460,thai binh,20.45,106.3333,25.21,88,100,1.51,VN,1692827224
461,orchard homes,46.8633,-114.0484,23.84,51,75,2.06,US,1692827225
462,atherton,53.5237,-2.4935,18.45,95,100,0.47,GB,1692827225
463,sodra sandby,56.5667,16.6167,16.92,85,99,3.76,SE,1692827226
464,rudnichnyy,59.617,52.4703,8.32,81,90,2.82,RU,1692827227
465,kone,-21.0595,164.8658,21.57,66,89,1.74,NC,1692827228
466,tralee,52.2704,-9.7026,12.39,93,65,1.89,IE,1692827228
467,tomatlan,19.9333,-105.25,32.84,61,97,4.63,MX,1692827229
468,kani keli,-12.9536,45.1033,22.59,76,0,2.7,YT,1692827230
469,milas,37.3164,27.7839,24.64,69,0,1.54,TR,1692827231
470,ariquemes,-9.9133,-63.0408,33.15,28,8,1.0,BR,1692827231
471,coyhaique,-45.5752,-72.0662,4.97,56,40,3.09,CL,1692827232
472,posto fiscal rolim de moura,-13.0833,-62.2667,32.64,22,1,1.66,BR,1692827233
473,cidreira,-30.1811,-50.2056,16.75,97,100,2.96,BR,1692827234
474,dadukou,26.5479,101.7054,20.97,91,93,0.47,CN,1692827234
475,sinabang,2.4803,96.3801,26.2,83,100,0.42,ID,1692827235
476,chui,-33.6971,-53.4616,9.85,67,60,1.36,UY,1692827236
477,langarud,37.197,50.1535,24.03,73,0,0.88,IR,1692827236
478,taltal,-25.4,-70.4833,17.74,70,24,2.74,CL,1692827237
479,rapla,59.0072,24.7928,15.84,97,23,1.55,EE,1692827239
480,bouarfa,32.53,-1.95,29.6,20,81,1.13,MA,1692827239
481,prince rupert,54.3161,-130.3201,16.05,75,75,3.6,CA,1692827240
482,zhanibek,49.4167,46.85,20.94,48,78,3.28,KZ,1692827241
483,tacna,-18.0056,-70.2483,18.11,63,20,4.12,PE,1692827242
484,belmonte,-15.8631,-38.8828,23.58,87,1,3.93,BR,1692827242
485,kananga,-5.8958,22.4178,25.52,40,58,0.61,CD,1692827243
486,nam som,17.7704,102.1895,24.61,92,100,1.09,TH,1692827244
487,trujillo,-8.116,-79.03,21.98,78,75,5.14,PE,1692827245
488,craig,40.5153,-107.5464,28.97,26,0,4.77,US,1692827245
489,vorkuta,67.5,64.0,6.01,91,98,3.28,RU,1692827246
490,haymana,39.4321,32.4973,20.36,28,0,1.29,TR,1692827247
491,balqash,46.8481,74.995,24.41,40,38,3.22,KZ,1692827248
492,goure,13.9835,10.2704,34.0,23,34,2.57,NE,1692827248
493,rundu,-17.9333,19.7667,19.19,12,2,3.19,NA,1692827249
494,luanco,43.6152,-5.7934,26.93,96,67,2.86,ES,1692827250
495,lorengau,-2.0226,147.2712,27.67,82,92,3.33,PG,1692827250
496,monte carmelo,-18.7247,-47.4986,27.47,22,35,1.54,BR,1692827251
497,val-d'or,48.1002,-77.7828,22.05,60,75,1.54,CA,1692827240
498,suklayin,15.7574,121.5503,24.95,91,99,2.25,PH,1692827253
499,hami,42.8,93.45,28.4,18,100,5.03,CN,1692826965
500,jwaneng,-24.6004,24.7303,13.57,23,0,4.5,BW,1692827254
501,archangelos,36.2149,28.1149,26.28,71,0,2.66,GR,1692827255
502,nadym,65.5333,72.5167,7.85,87,79,3.44,RU,1692827255
503,awjilah,29.1081,21.2869,31.95,29,3,4.56,LY,1692827046
504,malango,-2.9627,119.9001,19.18,98,95,0.87,ID,1692827257
505,paphos,34.7667,32.4167,26.88,83,20,2.06,CY,1692827236
506,whangarei,-35.7317,174.3239,11.13,69,100,0.4,NZ,1692827259
507,winburg,-28.518,27.0093,7.64,46,28,2.13,ZA,1692827260
508,nyurba,63.2842,118.3319,6.67,75,1,0.51,RU,1692827144
509,laayoune,27.1622,-13.2032,24.19,100,40,9.77,EH,1692827261
510,heroica caborca,30.7167,-112.15,38.54,24,49,4.82,MX,1692827262
511,minot,48.2325,-101.2963,29.12,58,75,2.57,US,1692827017
512,kuching,1.55,110.3333,25.57,96,20,0.89,MY,1692827015
513,kristiansund,63.1115,7.732,14.03,88,100,3.6,NO,1692826974
514,winnemucca,40.973,-117.7357,28.03,26,0,1.54,US,1692827265
515,iwanai,42.9744,140.5089,27.74,83,7,1.13,JP,1692827266
516,pimenta bueno,-11.6725,-61.1936,33.41,22,4,1.86,BR,1692827267
517,lingsugur,16.1667,76.5167,24.82,72,100,6.53,IN,1692827268
518,tadine,-21.55,167.8833,20.07,69,93,5.53,NC,1692827268
519,usinsk,65.9939,57.5281,7.06,97,100,4.62,RU,1692827269
520,smithers,54.7804,-127.1743,24.18,41,20,3.09,CA,1692827006
521,parambu,-6.2111,-40.6944,26.28,36,0,1.76,BR,1692827271
522,la gi,10.6667,107.7833,25.45,89,43,3.83,VN,1692827271
523,puerto deseado,-47.7503,-65.8938,4.96,57,8,4.8,AR,1692827272
524,plastun,44.7561,136.2939,21.28,100,100,1.33,RU,1692827273
525,fada,9.5667,8.3,21.22,94,99,1.04,NG,1692827273
526,leu,44.1833,24.0,27.49,57,0,1.54,RO,1692827274
527,mahina,-17.5065,-149.489,27.87,51,20,1.54,PF,1692827102
528,floro,61.5996,5.0328,13.98,82,100,4.12,NO,1692827276
529,fairfield,41.2668,-73.3162,25.84,49,0,3.6,US,1692827088
530,praia,14.9215,-23.5087,28.3,74,20,4.63,CV,1692827278
531,kozel'sk,54.0375,35.7716,12.49,91,57,2.92,RU,1692827279
532,berbera,10.4396,45.0143,33.76,45,93,2.75,SO,1692827280
533,katsuura,35.1333,140.3,27.5,87,2,4.2,JP,1692827281
534,balkanabat,39.5108,54.3671,30.22,32,0,2.49,TM,1692827056
535,robertsport,6.7533,-11.3686,25.56,91,52,3.79,LR,1692827283
536,mckinleyville,40.9465,-124.1006,23.21,77,20,3.6,US,1692827284
537,oranjemund,-28.55,16.4333,12.33,76,5,5.86,NA,1692827285
538,jayapura,-2.5333,140.7,24.66,91,100,2.49,ID,1692827285
539,kittila,67.6647,24.8936,12.08,100,20,2.57,FI,1692827286
540,reyes,-14.3167,-67.3833,33.98,55,20,2.57,BO,1692827287
541,minas de marcona,-15.2119,-75.1103,15.22,71,51,6.08,PE,1692827288
542,ataq,14.5377,46.8319,27.0,55,18,3.02,YE,1692827288
543,marquette,46.5333,-87.6335,17.68,95,100,2.51,US,1692827268
544,bubaque,11.2833,-15.8333,27.48,82,66,4.01,GW,1692827290
545,mugia,43.1041,-9.2179,21.2,84,98,2.09,ES,1692827291
546,daleville,31.3102,-85.713,38.11,43,0,5.66,US,1692827291
547,al hudaydah,14.7978,42.9545,32.15,69,6,3.68,YE,1692827293
548,hanzhong,33.0728,107.0303,18.17,94,55,0.57,CN,1692826997
549,bikenibeu village,1.3673,173.1241,29.98,74,20,1.54,KI,1692827259
550,nizhneangarsk,55.7833,109.55,11.14,85,18,1.26,RU,1692827295
551,berriane,32.8265,3.7669,31.45,24,0,3.42,DZ,1692827296
552,pontianak,-0.0333,109.3333,22.99,100,100,0.51,ID,1692827298
553,brooks,50.5834,-111.8851,25.02,24,1,7.72,CA,1692827298
554,ceres,37.5949,-120.9577,35.68,37,0,4.12,US,1692827299
555,ouesso,1.6136,16.0517,22.21,97,100,1.12,CG,1692827300
556,xinqing,48.2333,129.5,16.18,85,1,2.41,CN,1692827301
557,palikir - national government center,6.9248,158.1611,28.47,79,40,1.54,FM,1692827301
558,jinchang,38.4953,102.1739,17.19,40,76,1.35,CN,1692827302
559,shengli,37.4564,118.4856,21.42,68,100,3.42,CN,1692827303
560,bar,49.0772,27.6826,16.45,74,2,2.77,UA,1692827304
561,fenoarivo be,-18.4333,46.5667,16.0,67,1,3.25,MG,1692827305
562,dori,14.0354,-0.0345,32.06,51,62,7.25,BF,1692827305
563,babayevo,59.3936,35.9371,9.43,70,100,1.96,RU,1692827306
564,vadso,70.0744,29.7487,10.49,93,75,4.63,NO,1692827239
565,key west,24.5557,-81.7826,33.0,61,40,6.17,US,1692827308
566,sao caetano de odivelas,-0.75,-48.02,26.68,71,16,4.99,BR,1692827308
